[{"name":"北京","lng":116.4053,"lat":39.905},{"name":"天津","lng":117.1902,"lat":39.1256},{"name":"河北省","lng":114.5025,"lat":38.0455},{"name":"山西省","lng":112.5492,"lat":37.857},{"name":"内蒙古自治区","lng":111.6708,"lat":40.8183},{"name":"辽宁省","lng":123.4291,"lat":41.7968},{"name":"吉林省","lng":125.3245,"lat":43.8868},{"name":"黑龙江省","lng":126.6425,"lat":45.757},{"name":"上海","lng":121.4726,"lat":31.2317},{"name":"江苏省","lng":118.7674,"lat":32.0415},{"name":"浙江省","lng":120.1536,"lat":30.2875},{"name":"安徽省","lng":117.283,"lat":31.8612},{"name":"福建省","lng":119.3062,"lat":26.0753},{"name":"江西省","lng":115.8922,"lat":28.6765},{"name":"山东省","lng":117.0009,"lat":36.6758},{"name":"河南省","lng":113.6654,"lat":34.758},{"name":"湖北省","lng":114.2986,"lat":30.5844},{"name":"湖南省","lng":112.9823,"lat":28.1941},{"name":"广东省","lng":113.2806,"lat":23.1252},{"name":"广西壮族自治区","lng":108.32,"lat":22.824},{"name":"海南省","lng":110.3312,"lat":20.032},{"name":"重庆","lng":106.505,"lat":29.5332},{"name":"四川省","lng":104.0657,"lat":30.6595},{"name":"贵州省","lng":106.7135,"lat":26.5783},{"name":"云南省","lng":102.7123,"lat":25.0406},{"name":"西藏自治区","lng":91.1322,"lat":29.6604},{"name":"陕西省","lng":108.948,"lat":34.2632},{"name":"甘肃省","lng":103.8236,"lat":36.058},{"name":"青海省","lng":101.7789,"lat":36.6232},{"name":"宁夏回族自治区","lng":106.2782,"lat":38.4664},{"name":"新疆维吾尔自治区","lng":87.6177,"lat":43.7928},{"name":"台湾省","lng":121.5091,"lat":25.0443},{"name":"香港特别行政区","lng":114.1734,"lat":22.32},{"name":"澳门特别行政区","lng":113.5491,"lat":22.199},{"name":"东城区","lng":116.4188,"lat":39.9175},{"name":"西城区","lng":116.3668,"lat":39.9153},{"name":"朝阳区","lng":116.4864,"lat":39.9215},{"name":"丰台区","lng":116.287,"lat":39.8636},{"name":"石景山区","lng":116.1954,"lat":39.9146},{"name":"海淀区","lng":116.3103,"lat":39.9561},{"name":"门头沟区","lng":116.1054,"lat":39.9372},{"name":"房山区","lng":116.1392,"lat":39.7355},{"name":"通州区","lng":116.6586,"lat":39.9025},{"name":"顺义区","lng":116.6535,"lat":40.1289},{"name":"昌平区","lng":116.2359,"lat":40.2181},{"name":"大兴区","lng":116.338,"lat":39.7289},{"name":"怀柔区","lng":116.6371,"lat":40.3243},{"name":"平谷区","lng":117.1123,"lat":40.1448},{"name":"密云区","lng":116.8434,"lat":40.3774},{"name":"延庆区","lng":115.985,"lat":40.4653},{"name":"和平区","lng":117.1959,"lat":39.1183},{"name":"河东区","lng":117.2266,"lat":39.1221},{"name":"河西区","lng":117.2175,"lat":39.1019},{"name":"南开区","lng":117.1641,"lat":39.1205},{"name":"河北区","lng":117.2016,"lat":39.1566},{"name":"红桥区","lng":117.1633,"lat":39.1751},{"name":"东丽区","lng":117.314,"lat":39.0878},{"name":"西青区","lng":117.0122,"lat":39.1394},{"name":"津南区","lng":117.3825,"lat":38.9896},{"name":"北辰区","lng":117.1348,"lat":39.2256},{"name":"武清区","lng":117.058,"lat":39.3769},{"name":"宝坻区","lng":117.3081,"lat":39.717},{"name":"滨海新区","lng":117.6542,"lat":39.0328},{"name":"宁河区","lng":117.8283,"lat":39.3289},{"name":"静海区","lng":116.9253,"lat":38.9357},{"name":"蓟州区","lng":117.4074,"lat":40.0453},{"name":"石家庄市","lng":114.5025,"lat":38.0455},{"name":"唐山市","lng":118.1754,"lat":39.6351},{"name":"秦皇岛市","lng":119.5866,"lat":39.9425},{"name":"邯郸市","lng":114.4907,"lat":36.6123},{"name":"邢台市","lng":114.5089,"lat":37.0682},{"name":"保定市","lng":115.4823,"lat":38.8677},{"name":"张家口市","lng":114.8841,"lat":40.8119},{"name":"承德市","lng":117.9392,"lat":40.9762},{"name":"沧州市","lng":116.8575,"lat":38.3106},{"name":"廊坊市","lng":116.7044,"lat":39.5239},{"name":"衡水市","lng":115.666,"lat":37.7351},{"name":"太原市","lng":112.5492,"lat":37.857},{"name":"大同市","lng":113.2953,"lat":40.0903},{"name":"阳泉市","lng":113.5833,"lat":37.8612},{"name":"长治市","lng":113.1136,"lat":36.1911},{"name":"晋城市","lng":112.8513,"lat":35.4976},{"name":"朔州市","lng":112.4334,"lat":39.3313},{"name":"晋中市","lng":112.7365,"lat":37.6965},{"name":"运城市","lng":111.004,"lat":35.0228},{"name":"忻州市","lng":112.7335,"lat":38.4177},{"name":"临汾市","lng":111.518,"lat":36.0842},{"name":"吕梁市","lng":111.1343,"lat":37.5244},{"name":"呼和浩特市","lng":111.6708,"lat":40.8183},{"name":"包头市","lng":109.8404,"lat":40.6582},{"name":"乌海市","lng":106.8256,"lat":39.6737},{"name":"赤峰市","lng":118.9568,"lat":42.2753},{"name":"通辽市","lng":122.2631,"lat":43.6174},{"name":"鄂尔多斯市","lng":109.9903,"lat":39.8172},{"name":"呼伦贝尔市","lng":119.7582,"lat":49.2153},{"name":"巴彦淖尔市","lng":107.417,"lat":40.7574},{"name":"乌兰察布市","lng":113.1145,"lat":41.0341},{"name":"兴安盟","lng":122.0703,"lat":46.0763},{"name":"锡林郭勒盟","lng":116.091,"lat":43.944},{"name":"阿拉善盟","lng":105.7064,"lat":38.8448},{"name":"沈阳市","lng":123.4291,"lat":41.7968},{"name":"大连市","lng":121.6186,"lat":38.9146},{"name":"鞍山市","lng":122.9956,"lat":41.1106},{"name":"抚顺市","lng":123.9211,"lat":41.876},{"name":"本溪市","lng":123.7705,"lat":41.2979},{"name":"丹东市","lng":124.383,"lat":40.1243},{"name":"锦州市","lng":121.1357,"lat":41.1193},{"name":"营口市","lng":122.2352,"lat":40.6674},{"name":"阜新市","lng":121.649,"lat":42.0118},{"name":"辽阳市","lng":123.1815,"lat":41.2694},{"name":"盘锦市","lng":122.0696,"lat":41.1245},{"name":"铁岭市","lng":123.8443,"lat":42.2906},{"name":"朝阳市","lng":120.4512,"lat":41.5768},{"name":"葫芦岛市","lng":120.8564,"lat":40.7556},{"name":"长春市","lng":125.3245,"lat":43.8868},{"name":"吉林市","lng":126.553,"lat":43.8436},{"name":"四平市","lng":124.3708,"lat":43.1703},{"name":"辽源市","lng":125.1453,"lat":42.9027},{"name":"通化市","lng":125.9365,"lat":41.7212},{"name":"白山市","lng":126.4278,"lat":41.9425},{"name":"松原市","lng":124.8236,"lat":45.1182},{"name":"白城市","lng":122.8411,"lat":45.619},{"name":"延边朝鲜族自治州","lng":129.5132,"lat":42.9048},{"name":"哈尔滨市","lng":126.6425,"lat":45.757},{"name":"齐齐哈尔市","lng":123.9579,"lat":47.3421},{"name":"鸡西市","lng":130.976,"lat":45.3},{"name":"鹤岗市","lng":130.2775,"lat":47.3321},{"name":"双鸭山市","lng":131.1573,"lat":46.6434},{"name":"大庆市","lng":125.1127,"lat":46.5907},{"name":"伊春市","lng":128.8994,"lat":47.7248},{"name":"佳木斯市","lng":130.3616,"lat":46.8096},{"name":"七台河市","lng":131.0156,"lat":45.7713},{"name":"牡丹江市","lng":129.6186,"lat":44.583},{"name":"黑河市","lng":127.499,"lat":50.2496},{"name":"绥化市","lng":126.9929,"lat":46.6374},{"name":"大兴安岭地区","lng":124.7115,"lat":52.3353},{"name":"黄浦区","lng":121.4903,"lat":31.2228},{"name":"徐汇区","lng":121.4375,"lat":31.18},{"name":"长宁区","lng":121.4222,"lat":31.2181},{"name":"静安区","lng":121.4482,"lat":31.229},{"name":"普陀区","lng":121.3925,"lat":31.2417},{"name":"虹口区","lng":121.4918,"lat":31.261},{"name":"杨浦区","lng":121.5228,"lat":31.2708},{"name":"闵行区","lng":121.376,"lat":31.1117},{"name":"宝山区","lng":121.4899,"lat":31.3989},{"name":"嘉定区","lng":121.2503,"lat":31.3835},{"name":"浦东新区","lng":121.5677,"lat":31.2459},{"name":"金山区","lng":121.3307,"lat":30.7247},{"name":"松江区","lng":121.2235,"lat":31.0305},{"name":"青浦区","lng":121.113,"lat":31.1512},{"name":"奉贤区","lng":121.4585,"lat":30.9123},{"name":"崇明区","lng":121.3975,"lat":31.6269},{"name":"南京市","lng":118.7674,"lat":32.0415},{"name":"无锡市","lng":120.3017,"lat":31.5747},{"name":"徐州市","lng":117.1848,"lat":34.2618},{"name":"常州市","lng":119.947,"lat":31.7728},{"name":"苏州市","lng":120.6196,"lat":31.2994},{"name":"南通市","lng":120.8646,"lat":32.0162},{"name":"连云港市","lng":119.1788,"lat":34.6},{"name":"淮安市","lng":119.0213,"lat":33.5975},{"name":"盐城市","lng":120.14,"lat":33.3776},{"name":"扬州市","lng":119.421,"lat":32.3932},{"name":"镇江市","lng":119.4528,"lat":32.2044},{"name":"泰州市","lng":119.9152,"lat":32.4849},{"name":"宿迁市","lng":118.2752,"lat":33.963},{"name":"杭州市","lng":120.1536,"lat":30.2875},{"name":"宁波市","lng":121.5498,"lat":29.8684},{"name":"温州市","lng":120.6721,"lat":28.0006},{"name":"嘉兴市","lng":120.7509,"lat":30.7627},{"name":"湖州市","lng":120.1024,"lat":30.8672},{"name":"绍兴市","lng":120.5821,"lat":29.9971},{"name":"金华市","lng":119.6495,"lat":29.0895},{"name":"衢州市","lng":118.8726,"lat":28.9417},{"name":"舟山市","lng":122.1069,"lat":30.016},{"name":"台州市","lng":121.4286,"lat":28.6614},{"name":"丽水市","lng":119.9218,"lat":28.452},{"name":"合肥市","lng":117.283,"lat":31.8612},{"name":"芜湖市","lng":118.3765,"lat":31.3263},{"name":"蚌埠市","lng":117.3632,"lat":32.9397},{"name":"淮南市","lng":117.0183,"lat":32.6476},{"name":"马鞍山市","lng":118.5079,"lat":31.6894},{"name":"淮北市","lng":116.7947,"lat":33.9717},{"name":"铜陵市","lng":117.8166,"lat":30.9299},{"name":"安庆市","lng":117.0436,"lat":30.5088},{"name":"黄山市","lng":118.3173,"lat":29.7092},{"name":"滁州市","lng":118.3163,"lat":32.3036},{"name":"阜阳市","lng":115.8197,"lat":32.897},{"name":"宿州市","lng":116.9841,"lat":33.6339},{"name":"六安市","lng":116.5077,"lat":31.7529},{"name":"亳州市","lng":115.7829,"lat":33.8693},{"name":"池州市","lng":117.4892,"lat":30.656},{"name":"宣城市","lng":118.758,"lat":30.9457},{"name":"福州市","lng":119.3062,"lat":26.0753},{"name":"厦门市","lng":118.1102,"lat":24.4905},{"name":"莆田市","lng":119.0076,"lat":25.431},{"name":"三明市","lng":117.635,"lat":26.2654},{"name":"泉州市","lng":118.5894,"lat":24.9089},{"name":"漳州市","lng":117.6618,"lat":24.5109},{"name":"南平市","lng":118.1785,"lat":26.6356},{"name":"龙岩市","lng":117.0298,"lat":25.0916},{"name":"宁德市","lng":119.5271,"lat":26.6592},{"name":"南昌市","lng":115.8922,"lat":28.6765},{"name":"景德镇市","lng":117.2147,"lat":29.2926},{"name":"萍乡市","lng":113.8522,"lat":27.6229},{"name":"九江市","lng":115.9928,"lat":29.712},{"name":"新余市","lng":114.9308,"lat":27.8108},{"name":"鹰潭市","lng":117.0338,"lat":28.2386},{"name":"赣州市","lng":114.9403,"lat":25.851},{"name":"吉安市","lng":114.9864,"lat":27.1117},{"name":"宜春市","lng":114.3911,"lat":27.8043},{"name":"抚州市","lng":116.3584,"lat":27.9839},{"name":"上饶市","lng":117.9712,"lat":28.4444},{"name":"济南市","lng":117.0009,"lat":36.6758},{"name":"青岛市","lng":120.3552,"lat":36.083},{"name":"淄博市","lng":118.0476,"lat":36.8149},{"name":"枣庄市","lng":117.558,"lat":34.8564},{"name":"东营市","lng":118.6647,"lat":37.4346},{"name":"烟台市","lng":121.3914,"lat":37.5393},{"name":"潍坊市","lng":119.1071,"lat":36.7092},{"name":"济宁市","lng":116.5872,"lat":35.4154},{"name":"泰安市","lng":117.1291,"lat":36.195},{"name":"威海市","lng":122.1164,"lat":37.5097},{"name":"日照市","lng":119.4612,"lat":35.4286},{"name":"临沂市","lng":118.3264,"lat":35.0653},{"name":"德州市","lng":116.3074,"lat":37.454},{"name":"聊城市","lng":115.9804,"lat":36.456},{"name":"滨州市","lng":118.017,"lat":37.3835},{"name":"菏泽市","lng":115.4694,"lat":35.2465},{"name":"郑州市","lng":113.6654,"lat":34.758},{"name":"开封市","lng":114.3414,"lat":34.797},{"name":"洛阳市","lng":112.4345,"lat":34.663},{"name":"平顶山市","lng":113.3077,"lat":33.7352},{"name":"安阳市","lng":114.3525,"lat":36.1034},{"name":"鹤壁市","lng":114.2954,"lat":35.7482},{"name":"新乡市","lng":113.884,"lat":35.3026},{"name":"焦作市","lng":113.2383,"lat":35.239},{"name":"濮阳市","lng":115.0413,"lat":35.7682},{"name":"许昌市","lng":113.8261,"lat":34.023},{"name":"漯河市","lng":114.0264,"lat":33.5759},{"name":"三门峡市","lng":111.1941,"lat":34.7773},{"name":"南阳市","lng":112.5409,"lat":32.9991},{"name":"商丘市","lng":115.6505,"lat":34.4371},{"name":"信阳市","lng":114.075,"lat":32.1233},{"name":"周口市","lng":114.6497,"lat":33.6204},{"name":"驻马店市","lng":114.0247,"lat":32.9802},{"name":"济源市","lng":112.59,"lat":35.0904},{"name":"武汉市","lng":114.2986,"lat":30.5844},{"name":"黄石市","lng":115.077,"lat":30.2201},{"name":"十堰市","lng":110.7879,"lat":32.6469},{"name":"宜昌市","lng":111.2908,"lat":30.7026},{"name":"襄阳市","lng":112.1441,"lat":32.0424},{"name":"鄂州市","lng":114.8906,"lat":30.3965},{"name":"荆门市","lng":112.2043,"lat":31.0354},{"name":"孝感市","lng":113.9267,"lat":30.9264},{"name":"荆州市","lng":112.2381,"lat":30.3269},{"name":"黄冈市","lng":114.8794,"lat":30.4477},{"name":"咸宁市","lng":114.329,"lat":29.8328},{"name":"随州市","lng":113.3738,"lat":31.7175},{"name":"恩施土家族苗族自治州","lng":109.487,"lat":30.2831},{"name":"仙桃市","lng":113.454,"lat":30.365},{"name":"潜江市","lng":112.8969,"lat":30.4212},{"name":"天门市","lng":113.1659,"lat":30.6531},{"name":"神农架林区","lng":110.6715,"lat":31.7444},{"name":"长沙市","lng":112.9823,"lat":28.1941},{"name":"株洲市","lng":113.1517,"lat":27.8358},{"name":"湘潭市","lng":112.9441,"lat":27.8297},{"name":"衡阳市","lng":112.6077,"lat":26.9004},{"name":"邵阳市","lng":111.4692,"lat":27.2378},{"name":"岳阳市","lng":113.1329,"lat":29.3703},{"name":"常德市","lng":111.6913,"lat":29.0402},{"name":"张家界市","lng":110.4799,"lat":29.1274},{"name":"益阳市","lng":112.355,"lat":28.5701},{"name":"郴州市","lng":113.0321,"lat":25.7936},{"name":"永州市","lng":111.608,"lat":26.4345},{"name":"怀化市","lng":109.9782,"lat":27.5501},{"name":"娄底市","lng":112.0085,"lat":27.7281},{"name":"湘西土家族苗族自治州","lng":109.7397,"lat":28.3143},{"name":"广州市","lng":113.2806,"lat":23.1252},{"name":"韶关市","lng":113.5915,"lat":24.8013},{"name":"深圳市","lng":114.0859,"lat":22.547},{"name":"珠海市","lng":113.554,"lat":22.225},{"name":"汕头市","lng":116.7085,"lat":23.371},{"name":"佛山市","lng":113.1227,"lat":23.0288},{"name":"江门市","lng":113.0949,"lat":22.5904},{"name":"湛江市","lng":110.365,"lat":21.2749},{"name":"茂名市","lng":110.9192,"lat":21.6598},{"name":"肇庆市","lng":112.4725,"lat":23.0515},{"name":"惠州市","lng":114.4126,"lat":23.0794},{"name":"梅州市","lng":116.1176,"lat":24.2991},{"name":"汕尾市","lng":115.3642,"lat":22.7745},{"name":"河源市","lng":114.6978,"lat":23.7463},{"name":"阳江市","lng":111.9751,"lat":21.8592},{"name":"清远市","lng":113.0512,"lat":23.685},{"name":"东莞市","lng":113.7463,"lat":23.0462},{"name":"中山市","lng":113.3824,"lat":22.5211},{"name":"潮州市","lng":116.6323,"lat":23.6617},{"name":"揭阳市","lng":116.3557,"lat":23.5438},{"name":"云浮市","lng":112.0444,"lat":22.9298},{"name":"南宁市","lng":108.32,"lat":22.824},{"name":"柳州市","lng":109.4117,"lat":24.3146},{"name":"桂林市","lng":110.2991,"lat":25.2742},{"name":"梧州市","lng":111.2976,"lat":23.4748},{"name":"北海市","lng":109.1193,"lat":21.4733},{"name":"防城港市","lng":108.3455,"lat":21.6146},{"name":"钦州市","lng":108.6242,"lat":21.9671},{"name":"贵港市","lng":109.6021,"lat":23.0936},{"name":"玉林市","lng":110.1544,"lat":22.6314},{"name":"百色市","lng":106.6163,"lat":23.8977},{"name":"贺州市","lng":111.5521,"lat":24.4141},{"name":"河池市","lng":108.0621,"lat":24.6959},{"name":"来宾市","lng":109.2298,"lat":23.7338},{"name":"崇左市","lng":107.3539,"lat":22.4041},{"name":"海口市","lng":110.3312,"lat":20.032},{"name":"三亚市","lng":109.5083,"lat":18.2479},{"name":"三沙市","lng":112.3488,"lat":16.831},{"name":"儋州市","lng":109.5768,"lat":19.5175},{"name":"五指山市","lng":109.5167,"lat":18.7769},{"name":"琼海市","lng":110.4668,"lat":19.246},{"name":"文昌市","lng":110.754,"lat":19.613},{"name":"万宁市","lng":110.3888,"lat":18.7962},{"name":"东方市","lng":108.6538,"lat":19.102},{"name":"定安县","lng":110.3492,"lat":19.685},{"name":"屯昌县","lng":110.1028,"lat":19.3629},{"name":"澄迈县","lng":110.0071,"lat":19.7371},{"name":"临高县","lng":109.6877,"lat":19.9083},{"name":"白沙黎族自治县","lng":109.4526,"lat":19.2246},{"name":"昌江黎族自治县","lng":109.0534,"lat":19.261},{"name":"乐东黎族自治县","lng":109.1754,"lat":18.7476},{"name":"陵水黎族自治县","lng":110.0372,"lat":18.505},{"name":"保亭黎族苗族自治县","lng":109.7024,"lat":18.6364},{"name":"琼中黎族苗族自治县","lng":109.84,"lat":19.0356},{"name":"万州区","lng":108.3802,"lat":30.8078},{"name":"涪陵区","lng":107.3949,"lat":29.7037},{"name":"渝中区","lng":106.5629,"lat":29.5567},{"name":"大渡口区","lng":106.4861,"lat":29.481},{"name":"江北区","lng":106.5328,"lat":29.5754},{"name":"沙坪坝区","lng":106.4542,"lat":29.5412},{"name":"九龙坡区","lng":106.481,"lat":29.5235},{"name":"南岸区","lng":106.5608,"lat":29.524},{"name":"北碚区","lng":106.4379,"lat":29.8254},{"name":"綦江区","lng":106.6514,"lat":29.0281},{"name":"大足区","lng":105.7153,"lat":29.7005},{"name":"渝北区","lng":106.5129,"lat":29.6015},{"name":"巴南区","lng":106.5194,"lat":29.3819},{"name":"黔江区","lng":108.7826,"lat":29.5275},{"name":"长寿区","lng":107.0749,"lat":29.8337},{"name":"江津区","lng":106.2532,"lat":29.2834},{"name":"合川区","lng":106.2656,"lat":29.991},{"name":"永川区","lng":105.8947,"lat":29.3487},{"name":"南川区","lng":107.0982,"lat":29.1566},{"name":"璧山区","lng":106.2311,"lat":29.5936},{"name":"铜梁区","lng":106.0549,"lat":29.8399},{"name":"潼南区","lng":105.8418,"lat":30.1896},{"name":"荣昌区","lng":105.5941,"lat":29.4036},{"name":"开州区","lng":108.4133,"lat":31.1677},{"name":"梁平区","lng":107.8,"lat":30.6722},{"name":"武隆区","lng":107.7566,"lat":29.3238},{"name":"城口县","lng":108.6649,"lat":31.9463},{"name":"丰都县","lng":107.7325,"lat":29.8664},{"name":"垫江县","lng":107.3487,"lat":30.33},{"name":"忠县","lng":108.0375,"lat":30.2915},{"name":"云阳县","lng":108.6977,"lat":30.9305},{"name":"奉节县","lng":109.4658,"lat":31.02},{"name":"巫山县","lng":109.8789,"lat":31.0748},{"name":"巫溪县","lng":109.6289,"lat":31.3966},{"name":"石柱土家族自治县","lng":108.1124,"lat":29.9985},{"name":"秀山土家族苗族自治县","lng":108.996,"lat":28.4448},{"name":"酉阳土家族苗族自治县","lng":108.7672,"lat":28.8398},{"name":"彭水苗族土家族自治县","lng":108.1666,"lat":29.2939},{"name":"成都市","lng":104.0657,"lat":30.6595},{"name":"自贡市","lng":104.7734,"lat":29.3528},{"name":"攀枝花市","lng":101.716,"lat":26.5804},{"name":"泸州市","lng":105.4433,"lat":28.8891},{"name":"德阳市","lng":104.3987,"lat":31.128},{"name":"绵阳市","lng":104.7417,"lat":31.464},{"name":"广元市","lng":105.8298,"lat":32.4337},{"name":"遂宁市","lng":105.5713,"lat":30.5133},{"name":"内江市","lng":105.0661,"lat":29.5871},{"name":"乐山市","lng":103.7613,"lat":29.582},{"name":"南充市","lng":106.083,"lat":30.7953},{"name":"眉山市","lng":103.8318,"lat":30.0483},{"name":"宜宾市","lng":104.6308,"lat":28.7602},{"name":"广安市","lng":106.6334,"lat":30.4564},{"name":"达州市","lng":107.5023,"lat":31.2095},{"name":"雅安市","lng":103.001,"lat":29.9877},{"name":"巴中市","lng":106.7537,"lat":31.8588},{"name":"资阳市","lng":104.6419,"lat":30.1222},{"name":"阿坝藏族羌族自治州","lng":102.2214,"lat":31.8998},{"name":"甘孜藏族自治州","lng":101.9638,"lat":30.0507},{"name":"凉山彝族自治州","lng":102.2587,"lat":27.8868},{"name":"贵阳市","lng":106.7135,"lat":26.5783},{"name":"六盘水市","lng":104.8467,"lat":26.5846},{"name":"遵义市","lng":106.9373,"lat":27.7066},{"name":"安顺市","lng":105.9322,"lat":26.2455},{"name":"毕节市","lng":105.285,"lat":27.3017},{"name":"铜仁市","lng":109.1916,"lat":27.7183},{"name":"黔西南布依族苗族自治州","lng":104.898,"lat":25.0881},{"name":"黔东南苗族侗族自治州","lng":107.9775,"lat":26.5834},{"name":"黔南布依族苗族自治州","lng":107.5172,"lat":26.2582},{"name":"昆明市","lng":102.7123,"lat":25.0406},{"name":"曲靖市","lng":103.7979,"lat":25.5016},{"name":"玉溪市","lng":102.5439,"lat":24.3505},{"name":"保山市","lng":99.1671,"lat":25.1118},{"name":"昭通市","lng":103.7172,"lat":27.337},{"name":"丽江市","lng":100.233,"lat":26.8721},{"name":"普洱市","lng":100.9723,"lat":22.7773},{"name":"临沧市","lng":100.087,"lat":23.8866},{"name":"楚雄彝族自治州","lng":101.546,"lat":25.042},{"name":"红河哈尼族彝族自治州","lng":103.3842,"lat":23.3668},{"name":"文山壮族苗族自治州","lng":104.244,"lat":23.3695},{"name":"西双版纳傣族自治州","lng":100.7979,"lat":22.0017},{"name":"大理白族自治州","lng":100.2257,"lat":25.5894},{"name":"德宏傣族景颇族自治州","lng":98.5784,"lat":24.4367},{"name":"怒江傈僳族自治州","lng":98.8543,"lat":25.8509},{"name":"迪庆藏族自治州","lng":99.7065,"lat":27.8269},{"name":"拉萨市","lng":91.1322,"lat":29.6604},{"name":"日喀则市","lng":88.8851,"lat":29.2675},{"name":"昌都市","lng":97.1785,"lat":31.1369},{"name":"林芝市","lng":94.3623,"lat":29.6547},{"name":"山南市","lng":91.7665,"lat":29.236},{"name":"那曲市","lng":92.0602,"lat":31.476},{"name":"阿里地区","lng":80.1055,"lat":32.5032},{"name":"西安市","lng":108.948,"lat":34.2632},{"name":"铜川市","lng":108.9796,"lat":34.9166},{"name":"宝鸡市","lng":107.1449,"lat":34.3693},{"name":"咸阳市","lng":108.7051,"lat":34.3334},{"name":"渭南市","lng":109.5029,"lat":34.4994},{"name":"延安市","lng":109.4908,"lat":36.5965},{"name":"汉中市","lng":107.0286,"lat":33.0777},{"name":"榆林市","lng":109.7412,"lat":38.2902},{"name":"安康市","lng":109.0293,"lat":32.6903},{"name":"商洛市","lng":109.9398,"lat":33.8683},{"name":"兰州市","lng":103.8236,"lat":36.058},{"name":"嘉峪关市","lng":98.2773,"lat":39.7865},{"name":"金昌市","lng":102.1879,"lat":38.5142},{"name":"白银市","lng":104.1736,"lat":36.5457},{"name":"天水市","lng":105.725,"lat":34.5785},{"name":"武威市","lng":102.6347,"lat":37.93},{"name":"张掖市","lng":100.4555,"lat":38.9329},{"name":"平凉市","lng":106.6847,"lat":35.5428},{"name":"酒泉市","lng":98.5108,"lat":39.744},{"name":"庆阳市","lng":107.6384,"lat":35.7342},{"name":"定西市","lng":104.6263,"lat":35.5796},{"name":"陇南市","lng":104.9294,"lat":33.3886},{"name":"临夏回族自治州","lng":103.212,"lat":35.5994},{"name":"甘南藏族自治州","lng":102.911,"lat":34.9864},{"name":"西宁市","lng":101.7789,"lat":36.6232},{"name":"海东市","lng":102.1033,"lat":36.5029},{"name":"海北藏族自治州","lng":100.9011,"lat":36.9594},{"name":"黄南藏族自治州","lng":102.02,"lat":35.5177},{"name":"海南藏族自治州","lng":100.6195,"lat":36.2804},{"name":"果洛藏族自治州","lng":100.2421,"lat":34.4736},{"name":"玉树藏族自治州","lng":97.0085,"lat":33.004},{"name":"海西蒙古族藏族自治州","lng":97.3708,"lat":37.3747},{"name":"银川市","lng":106.2782,"lat":38.4664},{"name":"石嘴山市","lng":106.3762,"lat":39.0133},{"name":"吴忠市","lng":106.1994,"lat":37.9862},{"name":"固原市","lng":106.2852,"lat":36.0046},{"name":"中卫市","lng":105.1896,"lat":37.515},{"name":"乌鲁木齐市","lng":87.6177,"lat":43.7928},{"name":"克拉玛依市","lng":84.8739,"lat":45.5959},{"name":"吐鲁番市","lng":89.1841,"lat":42.9476},{"name":"哈密市","lng":93.5132,"lat":42.8332},{"name":"昌吉回族自治州","lng":87.304,"lat":44.0146},{"name":"博尔塔拉蒙古自治州","lng":82.0748,"lat":44.9033},{"name":"巴音郭楞蒙古自治州","lng":86.151,"lat":41.7686},{"name":"阿克苏地区","lng":80.2651,"lat":41.1707},{"name":"克孜勒苏柯尔克孜自治州","lng":76.1728,"lat":39.7134},{"name":"喀什地区","lng":75.9891,"lat":39.4677},{"name":"和田地区","lng":79.9253,"lat":37.1107},{"name":"伊犁哈萨克自治州","lng":81.3179,"lat":43.9219},{"name":"塔城地区","lng":82.9857,"lat":46.7463},{"name":"阿勒泰地区","lng":88.1396,"lat":47.8484},{"name":"石河子市","lng":86.0411,"lat":44.3059},{"name":"阿拉尔市","lng":81.2859,"lat":40.5419},{"name":"图木舒克市","lng":79.078,"lat":39.8673},{"name":"五家渠市","lng":87.5269,"lat":44.1674},{"name":"北屯市","lng":87.8249,"lat":47.3532},{"name":"铁门关市","lng":85.5012,"lat":41.8273},{"name":"双河市","lng":82.3537,"lat":44.8405},{"name":"可克达拉市","lng":80.6358,"lat":43.6832},{"name":"昆玉市","lng":79.2874,"lat":37.208},{"name":"胡杨河市","lng":84.8276,"lat":44.6929},{"name":"中西区","lng":114.1544,"lat":22.282},{"name":"湾仔区","lng":114.1829,"lat":22.2764},{"name":"东区","lng":114.226,"lat":22.2797},{"name":"南区","lng":114.16,"lat":22.2459},{"name":"油尖旺区","lng":114.1733,"lat":22.3117},{"name":"深水埗区","lng":114.1632,"lat":22.3339},{"name":"九龙城区","lng":114.1928,"lat":22.3125},{"name":"黄大仙区","lng":114.2039,"lat":22.3363},{"name":"观塘区","lng":114.2141,"lat":22.3208},{"name":"荃湾区","lng":114.1211,"lat":22.3683},{"name":"屯门区","lng":113.9766,"lat":22.3938},{"name":"元朗区","lng":114.0324,"lat":22.4414},{"name":"北区","lng":114.1474,"lat":22.4961},{"name":"大埔区","lng":114.1717,"lat":22.4457},{"name":"西贡区","lng":114.2646,"lat":22.3142},{"name":"沙田区","lng":114.1954,"lat":22.3795},{"name":"葵青区","lng":114.1393,"lat":22.3639},{"name":"离岛区","lng":113.9461,"lat":22.2864},{"name":"花地玛堂区","lng":113.5529,"lat":22.2079},{"name":"花王堂区","lng":113.549,"lat":22.1992},{"name":"望德堂区","lng":113.5502,"lat":22.1937},{"name":"大堂区","lng":113.5536,"lat":22.1885},{"name":"风顺堂区","lng":113.5419,"lat":22.1874},{"name":"嘉模堂区","lng":113.5587,"lat":22.1538},{"name":"路凼填海区","lng":113.5696,"lat":22.1366},{"name":"圣方济各堂区","lng":113.56,"lat":22.1235}]